%time,field.positions0.phi,field.positions1.x,field.positions1.y
1719990003013467379,1.1815861463546753,0.447451114654541,0.4839323759078979
1719990003044101528,1.2027257680892944,0.4474510848522186,0.4839359819889068
1719990003074703487,1.1917437314987185,0.4474482834339142,0.4839278757572174
1719990003105183655,1.1938031911849976,0.4474511742591858,0.4839309751987457
1719990003137769095,1.1998785734176636,0.4474460482597351,0.483926922082901
1719990003167490848,1.2012017965316772,0.4474528729915619,0.4839312434196472
1719990003227947021,1.1988447904586792,0.4474496245384216,0.4839267134666443
1719990003259637776,1.1970733404159546,0.447449117898941,0.4839265942573547
1719990003290298195,1.2118839025497437,0.4474457502365112,0.4839248657226562
1719990003321014784,1.2112191915512085,0.4474480152130127,0.4839261174201965
1719990003351892805,1.1993716955184937,0.4474488198757171,0.483924925327301
1719990003383039156,1.1992162466049194,0.4474466741085052,0.4839245080947876
1719990003413624985,1.2054451704025269,0.4474460780620575,0.4839222431182861
1719990003444258444,1.207628607749939,0.4474470019340515,0.4839237332344055
1719990003474854482,1.2168220281600952,0.4474467933177948,0.4839226007461548
1719990003505561781,1.2050784826278689,0.4474466443061828,0.4839223623275757
1719990003536237560,1.2098382711410522,0.4474449455738067,0.4839240610599518
1719990003570004488,1.204323172569275,0.4474472403526306,0.4839231371879577
1719990003603452733,1.2244914770126345,0.4474467933177948,0.4839212000370025
1719990003659944742,1.21920907497406,0.4474427103996277,0.4839144051074981
1719990003690743422,1.225098967552185,0.4474420845508575,0.483911395072937
1719990003721722463,1.2145103216171265,0.4474432170391083,0.4839107096195221
1719990003752585093,1.2234324216842651,0.447443425655365,0.4839160442352295
1719990003784425559,1.2167543172836304,0.4474444687366485,0.4839143753051758
1719990003814965088,1.2214330434799194,0.4474424123764038,0.4839116930961609
1719990003845563626,1.2323778867721558,0.4474432468414306,0.4839112460613251
1719990003876041274,1.2156728506088257,0.4474405944347381,0.4839061200618744
1719990003906778803,1.2328499555587769,0.4474378824234009,0.4839066565036773
1719990003937414152,1.2227128744125366,0.4474381506443023,0.483907550573349
1719990003971623151,1.2264355421066284,0.4474428594112396,0.4839092195034027
1719990004004189932,1.211469054222107,0.447439581155777,0.483908474445343
1719990004061124184,1.2138770818710327,0.4474402070045471,0.4839082956314087
1719990004092499557,1.2198604345321655,0.4474379122257232,0.4839076399803161
1719990004123247557,1.2346519231796265,0.4474407136440277,0.4839009940624237
1719990004154319728,1.2265599966049194,0.4474412500858307,0.4839090704917907
1719990004185311339,1.2164119482040403,0.4474374949932098,0.483907550573349
1719990004217591347,1.2338231801986694,0.4474393725395202,0.4839058816432953
1719990004247486282,1.2160590887069702,0.4474399387836456,0.4839043915271759
1719990004278146751,1.237248778343201,0.447437584400177,0.4839036166667938
1719990004308730619,1.2339695692062378,0.4474370777606964,0.4839050471782684
1719990004339285527,1.2240175008773804,0.4474420547485351,0.4839056432247162
1719990004370026537,1.2146481275558472,0.4474392533302307,0.4839051365852356
1719990004400663476,1.218395113945007,0.4474413692951202,0.4839067161083221
1719990004435742780,1.2199887037277222,0.4474392235279083,0.4839043915271759
1719990004493169566,1.2296189069747925,0.4474416673183441,0.4839039146900177
1719990004524043505,1.2297343015670776,0.4474399387836456,0.4839068651199341
1719990004554833125,1.2181957960128784,0.4474387168884277,0.4839025437831878
1719990004585680466,1.2272919416427612,0.4474358558654785,0.4839028418064117
1719990004617846604,1.2310360670089722,0.4474373161792755,0.4839051365852356
1719990004648378471,1.2141655683517456,0.447436511516571,0.4839028120040893
1719990004679044890,1.2211607694625854,0.447437435388565,0.4839019477367401
1719990004709650899,1.2245029211044312,0.4474382102489471,0.483902245759964
1719990004740240177,1.224303126335144,0.4474358260631561,0.4838994741439819
1719990004770919146,1.224850058555603,0.4474424421787262,0.4839016199111938
1719990004801586736,1.2282899618148804,0.4474410712718963,0.4838976562023163
1719990004834383407,1.2272857427597046,0.4474432468414306,0.4838996529579162
1719990004869014569,1.2299093008041382,0.4474411010742187,0.4838960170745849
1719990004924724524,1.2216347455978394,0.4474416971206665,0.4838986992835998
1719990004955665025,1.2194923162460327,0.4474461078643799,0.4838980138301849
1719990004986536215,1.231639742851257,0.4474446177482605,0.4838967323303222
1719990005018073919,1.224516749382019,0.4474486410617828,0.4838973879814148
1719990005049461653,1.2263110876083374,0.4474497139453888,0.4838980436325073
1719990005079317946,1.225841403007507,0.4474549293518066,0.4838998019695282
1719990005109878965,1.2468866109848022,0.4474537372589111,0.4838988482952118
1719990005140566344,1.2421048879623413,0.4474513530731201,0.4839008748531341
1719990005171227943,1.227742075920105,0.4474529325962066,0.4838977754116058
1719990005203062729,1.2301539182662964,0.4474557936191559,0.4839000105857849
1719990005236314773,1.2390846014022827,0.4474602341651916,0.4839011430740356
1719990005269750708,1.242944598197937,0.447458952665329,0.483900249004364
1719990005325429813,1.2218807935714722,0.4474571943283081,0.4838988482952118
1719990005356061462,1.2391561269760132,0.4474599659442901,0.4838998317718506
1719990005386778731,1.2398723363876345,0.4474616944789886,0.483898401260376
1719990005418660217,1.2269185781478882,0.4474606812000274,0.4839009940624237
1719990005449725348,1.2339028120040894,0.4474557340145111,0.4838984906673431
1719990005480204406,1.2164591550827026,0.4474589824676513,0.4838989973068237
1719990005510983546,1.2239025831222534,0.4474568665027618,0.4838982820510864
1719990005541578494,1.2321380376815796,0.4474557638168335,0.4838995337486267
1719990005572103713,1.236467719078064,0.4474580585956573,0.4838978052139282
1719990005603424035,1.230596899986267,0.4474603831768036,0.4838971197605133
1719990005633799922,1.2275389432907104,0.4474627673625946,0.4838983118534088
1719990005671221431,1.2193893194198608,0.4474596083164215,0.4839003384113312
1719990005726469313,1.2426456212997437,0.4474610090255737,0.483899176120758
1719990005757268233,1.2250593900680542,0.4474609792232513,0.4838981032371521
1719990005788393064,1.2376307249069214,0.4474620819091797,0.4838988184928894
1719990005819201004,1.2348555326461792,0.4474630653858185,0.4838971197605133
1719990005851052460,1.2398055791854858,0.447463721036911,0.4838996529579162
1719990005880992845,1.2369803190231323,0.447463184595108,0.4838990867137909
1719990005911598253,1.2464112043380735,0.4474605619907379,0.4838983416557312
1719990005942159532,1.2468856573104858,0.4474643170833587,0.483897715806961
1719990005972837061,1.2448123693466189,0.447466492652893,0.4838979244232178
1719990006003451099,1.2337983846664429,0.4474626183509826,0.4838969111442566
1719990006035011784,1.2517298460006714,0.4474665224552154,0.4838983714580536
1719990006069283714,1.2571347951889038,0.4474648237228393,0.4838976860046386
1719990006126909140,1.2472680807113647,0.4474670588970184,0.4838990569114685
1719990006158563655,1.2400697469711304,0.447467178106308,0.4838980734348297
1719990006189250744,1.231730818748474,0.4474712610244751,0.4838959276676178
1719990006219873382,1.247944712638855,0.4474708437919616,0.4838978052139282
1719990006251899799,1.2281564474105835,0.4474685788154602,0.4838994145393371
1719990006283368613,1.2393749952316284,0.4474671483039856,0.4839003682136535
1719990006313898421,1.2509607076644895,0.4474669098854065,0.4838994145393371
1719990006344636281,1.2497771978378296,0.4474665820598602,0.4838990569114685
1719990006375265450,1.2453988790512085,0.4474714398384094,0.4838993847370147
1719990006405794897,1.2452462911605835,0.4474691748619079,0.4838990569114685
1719990006436463746,1.244146704673767,0.447470486164093,0.4838965237140655
1719990006469702161,1.242319941520691,0.4474709033966064,0.4838999509811401
1719990006502648413,1.2421172857284546,0.4474691450595855,0.4838998317718506
1719990006559833367,1.2348650693893433,0.447469562292099,0.4838969111442566
1719990006591158569,1.221314787864685,0.4474715292453766,0.4838998317718506
1719990006622060439,1.235112547874451,0.4474703669548034,0.4838996827602386
1719990006653167301,1.2366818189620972,0.4474680423736572,0.48389932513237
1719990006684822996,1.236056208610535,0.4474712610244751,0.4838984310626983
1719990006716112108,1.2410887479782104,0.4474697411060333,0.4838998913764953
1719990006746164074,1.2372864484786987,0.4474753439426422,0.4839023053646087
1719990006776692372,1.226784110069275,0.4474846422672272,0.4839026629924774
1719990006807402511,1.230979323387146,0.4474873542785644,0.4839038252830505
1719990006837951489,1.2377275228500366,0.4474905133247375,0.4839032888412475
1719990006868936690,1.2498759031295776,0.4474891424179077,0.4839023053646087
1719990006901366949,1.2419041395187378,0.4474900662899017,0.4839023351669311
1719990006935686680,1.2411383390426636,0.447490930557251,0.4839016497135162
1719990006992315820,1.242151141166687,0.447488933801651,0.4839019179344177
1719990007022722897,1.2407482862472534,0.4474866986274719,0.4839051067829132
1719990007053610068,1.2377756834030151,0.4474881887435913,0.4839035868644714
1719990007085151991,1.2352155447006226,0.4474883079528808,0.4839038550853729
1719990007116605025,1.2563871145248413,0.4474864900112152,0.4839026033878326
1719990007147080013,1.2411764860153198,0.4474888145923614,0.4839024543762207
1719990007177654521,1.2393378019332886,0.4474882781505584,0.4839023053646087
1719990007208390921,1.2502878904342651,0.4474889039993286,0.483900249004364
1719990007238911019,1.2552255392074585,0.4474907219409942,0.4839034080505371
1719990007269570668,1.2494953870773315,0.4474923312664032,0.4839028716087341
1719990007302294069,1.2484639883041382,0.4474937915802002,0.483902096748352
1719990007336140566,1.2361940145492554,0.4474921524524688,0.4839016497135162
1719990007393361300,1.2560428380966189,0.4474926888942718,0.4839017391204834
1719990007423716227,1.2478526830673218,0.4474944174289703,0.4839011430740356
1719990007454650797,1.2511247396469116,0.4474961161613464,0.4838990867137909
1719990007485473388,1.2516597509384155,0.4474957883358001,0.4839031994342804
1719990007517500625,1.241252303123474,0.4474959969520569,0.4839039742946625
1719990007547798161,1.2516688108444214,0.4474969208240509,0.4839049577713012
1719990007578387960,1.2531756162643433,0.447498083114624,0.4839009642601013
1719990007608970738,1.2505358457565308,0.447498470544815,0.4839052557945251
1719990007639817138,1.2492059469223022,0.4474998712539673,0.4839003980159759
1719990007670335366,1.2681759595870972,0.4474980533123016,0.4839036762714386
1719990007701339957,1.2638672590255735,0.4474967420101166,0.483903169631958
1719990007737406908,1.2428964376449585,0.4474953114986419,0.4838964343070984
1719990007793399865,1.2498759031295776,0.4474980533123016,0.4839016795158386
1719990007825012779,1.252846121788025,0.4474990367889404,0.4839028120040893
1719990007855680188,1.2577975988388062,0.4474968612194061,0.4839007258415222
1719990007886463458,1.2542728185653689,0.4474986791610718,0.4839019775390625
1719990007918141923,1.234357237815857,0.4474991858005523,0.4839058518409729
1719990007949491065,1.2396234273910522,0.4474976062774658,0.4838992357254028
1719990007979362570,1.259250521659851,0.4474983811378479,0.4839020371437073
1719990008009972668,1.2339481115341189,0.4474982619285583,0.4839022159576416
1719990008040657587,1.2512825727462769,0.4474975764751434,0.4839012622833252
1719990008071257216,1.253379225730896,0.4474958181381225,0.4838995337486267
1719990008102257277,1.23129403591156,0.4474967420101166,0.4839030802249908
1719990008136400076,1.2540301084518433,0.4474993348121643,0.483900249004364
1719990008194368274,1.2381900548934937,0.4475003182888031,0.4838995635509491
1719990008225544086,1.2499064207077026,0.4474969804286957,0.4838990569114685
1719990008256523577,1.243221640586853,0.4475013613700866,0.4839006066322326
1719990008287328236,1.2465137243270874,0.4474996924400329,0.4839001595973968
1719990008318970151,1.2508867979049685,0.4475027620792389,0.4838996231555938
1719990008351065678,1.2391217947006226,0.4475035369396209,0.4839028716087341
1719990008380673131,1.2537211179733276,0.4475053548812866,0.4839023053646087
1719990008411411340,1.2380021810531616,0.4475076198577881,0.4839026033878326
1719990008441985649,1.258065104484558,0.4475064873695373,0.4839025735855102
1719990008472499557,1.2568100690841677,0.4475077092647552,0.4839020371437073
1719990008503180186,1.2470921277999878,0.447509616613388,0.4839018881320953
1719990008535415784,1.2444723844528198,0.4475099146366119,0.4839046895503998
1719990008569248621,1.2451213598251345,0.4475102722644806,0.4839063286781311
1719990008626426285,1.255480170249939,0.4475135803222656,0.4839054644107818
1719990008657650177,1.244505763053894,0.4475115537643432,0.4839063584804535
1719990008688132005,1.2574619054794312,0.4475078582763672,0.4839046895503998
1719990008719246667,1.264259696006775,0.4475078582763672,0.4839054346084595
1719990008751366654,1.2529476881027222,0.4475122392177582,0.4839062392711639
1719990008781049257,1.2425836324691772,0.4475100636482239,0.4839061200618744
1719990008811657646,1.249548316001892,0.447506695985794,0.4839035272598266
1719990008842287314,1.2491239309310913,0.4475062787532806,0.4839030802249908
1719990008873020174,1.2458089590072632,0.4475118815898895,0.4839025139808655
1719990008903649082,1.2502940893173218,0.4475118815898895,0.4839054942131042
1719990008935281067,1.2445038557052612,0.4475070834159851,0.4839047193527221
1719990008967185773,1.2577427625656128,0.4475069642066955,0.4839030504226684
1719990009002155697,1.2435563802719116,0.4475075602531433,0.4839051961898803
1719990009058210514,1.267121195793152,0.4475112557411194,0.4839042127132416
1719990009088560591,1.2616251707077026,0.4475096762180328,0.4839050769805908
1719990009119523432,1.2550734281539917,0.4475106298923492,0.4839046895503998
1719990009150915225,1.2562121152877808,0.4475136399269104,0.4839047491550445
1719990009181361142,1.247320532798767,0.4475092589855194,0.4839060604572296
1719990009212062022,1.2549585103988647,0.4475082159042358,0.4839056432247162
1719990009242602710,1.2677549123764038,0.4475101828575134,0.4839062690734863
1719990009273228518,1.2405389547348022,0.4475134313106537,0.4839072525501251
1719990009303888818,1.26286780834198,0.4475093781948089,0.4839065074920654
1719990009335174680,1.2361496686935425,0.4475089907646179,0.4839032888412475
1719990009370706617,1.267677664756775,0.4475045204162597,0.4839079082012176
1719990009427026436,1.2479394674301147,0.4475097060203552,0.4839048981666565
1719990009458800201,1.244364619255066,0.4475084543228149,0.4839062988758087
1719990009489324530,1.2470158338546753,0.4475090205669403,0.4839063286781311
1719990009520038638,1.2630709409713743,0.4475091695785522,0.4839071929454803
1719990009551726463,1.2593997716903689,0.4475063383579254,0.4839065670967102
1719990009582895786,1.2415508031845093,0.4475105702877044,0.4839061200618744
1719990009613404983,1.2515114545822144,0.4475124478340149,0.4839031100273132
1719990009644036422,1.249422907829285,0.4475131034851074,0.4839051365852356
1719990009674727841,1.244287371635437,0.4475075006484985,0.4839065372943878
1719990009705340169,1.239214301109314,0.4475060105323791,0.4839068055152893
1719990009738713224,1.2535403966903689,0.4475079178810119,0.4839061200618744
1719990009767898334,1.254285216331482,0.4475104510784149,0.4839039444923401
1719990009801854033,1.2418965101242063,0.4475076794624328,0.4839058220386505
1719990009833355887,1.244228720664978,0.4475037455558777,0.483905553817749
1719990009891069373,1.248236060142517,0.4475105702877044,0.4839077293872833
1719990009921697982,1.245320200920105,0.4475103914737701,0.4839065372943878
1719990009952660842,1.2413862943649292,0.447506844997406,0.4839043319225311
1719990009984411888,1.2644885778427124,0.4475079178810119,0.483906626701355
1719990010014833956,1.2502249479293823,0.4475098550319671,0.4839085340499878
1719990010045714075,1.2392505407333374,0.4475108981132507,0.48390793800354
1719990010076246974,1.258820414543152,0.4475068151950836,0.4839041829109192
1719990010106983803,1.2583626508712769,0.4475051164627075,0.4839069545269012
1719990010137614401,1.2528833150863647,0.4475094079971313,0.4839054942131042
1719990010170964156,1.2531760931015017,0.4475106000900268,0.4839069247245788
1719990010202799241,1.237315058708191,0.4475064873695373,0.4839072227478027
1719990010260943761,1.2401450872421265,0.4475056231021881,0.4839069247245788
1719990010292513415,1.249674677848816,0.4475065469741821,0.483907014131546
1719990010323165804,1.259541392326355,0.4475086033344269,0.4839047491550445
1719990010354232605,1.261539340019226,0.4475100040435791,0.483907550573349
1719990010385398457,1.2399176359176636,0.4475105702877044,0.4839078485965729
1719990010417676596,1.2531903982162476,0.4475095570087433,0.4839053153991699
1719990010447928722,1.256959319114685,0.4475105404853821,0.4839074313640594
1719990010478557211,1.2644284963607788,0.4475099146366119,0.4839068949222564
1719990010509199729,1.252165675163269,0.4475085139274597,0.4839076101779938
1719990010539785908,1.2598165273666382,0.4475111663341522,0.4839069545269012
1719990010570464777,1.2405108213424685,0.4475082159042358,0.4839076399803161
1719990010603336258,1.253759741783142,0.4475109279155731,0.4839055836200714
1719990010635728437,1.245402693748474,0.4475111365318298,0.4839051961898803
1719990010694355649,1.2400044202804563,0.447511613368988,0.4839065372943878
1719990010725752273,1.2456153631210327,0.4475134611129761,0.4839079678058624
1719990010756943225,1.2470582723617554,0.4475107789039612,0.4839062690734863
1719990010787660164,1.256466269493103,0.4475129842758178,0.4839056134223938
1719990010818941776,1.247416853904724,0.4475100636482239,0.4839043617248535
1719990010850251279,1.2477258443832395,0.4475118815898895,0.4839062988758087
1719990010880587646,1.2593997716903689,0.4475122988224029,0.4839064478874206
1719990010911231795,1.2396820783615112,0.4475141167640686,0.4839052855968475
1719990010941942644,1.2564982175827026,0.4475067257881164,0.4839077889919281
1719990010972546632,1.250614047050476,0.4475100040435791,0.4839070439338684
1719990011003956135,1.2502635717391968,0.447510153055191,0.4839064478874206
1719990011033992191,1.268555998802185,0.4475089609622955,0.4839067757129669
1719990011067386486,1.2395528554916382,0.447509229183197,0.4839053750038147
1719990011126478730,1.2513755559921265,0.447510689496994,0.483906626701355
1719990011158480107,1.2544010877609253,0.4475103914737701,0.483907550573349
1719990011189182426,1.2505396604537964,0.4475101828575134,0.4839057326316833
1719990011219835605,1.2542418241500854,0.4475091397762298,0.483906090259552
1719990011251473999,1.2596901655197144,0.4475084543228149,0.4839061498641968
1719990011282667221,1.2503141164779663,0.4475114345550537,0.4839060008525848
1719990011312628596,1.2520464658737185,0.4475141167640686,0.4839063882827759
1719990011343315225,1.2589815855026243,0.4475081264972687,0.4839036762714386
1719990011373894884,1.2478364706039429,0.4475055336952209,0.4839056730270386
1719990011404661373,1.2354296445846558,0.4475094676017761,0.483905553817749
1719990011435347762,1.2638648748397827,0.4475131034851074,0.4839076697826385
1719990011467761581,1.2479981184005735,0.4475060999393463,0.4839074313640594
1719990011503168627,1.253641963005066,0.4475057423114776,0.4839055836200714
1719990011559376785,1.2463501691818235,0.4475094974040985,0.4839076995849609
1719990011591396292,1.2425388097763062,0.447511076927185,0.4839057922363281
1719990011621948131,1.2679890394210815,0.4475103914737701,0.4839077889919281
1719990011652756380,1.2586697340011597,0.4475076496601105,0.4839088916778564
1719990011684829797,1.2568758726119995,0.4475105404853821,0.4839078187942505
1719990011716003839,1.2522529363632202,0.4475102424621582,0.483906477689743
1719990011746008654,1.2609971761703491,0.4475106596946716,0.4839065968990326
1719990011776811574,1.2581676244735718,0.4475082755088806,0.4839059710502624
1719990011807318402,1.2547715902328491,0.4475078880786896,0.4839048087596893
1719990011837974401,1.2341431379318235,0.4475070536136627,0.4839052259922027
1719990011868721630,1.2543429136276243,0.4475106298923492,0.4839045703411102
1719990011901103519,1.246655821800232,0.4475081861019134,0.4839060306549072
1719990011936178474,1.2425388097763062,0.4475077986717224,0.4839044511318207
1719990011992012779,1.256968379020691,0.4475079774856567,0.4839037358760834
1719990012022561618,1.2527369260787964,0.4475089907646179,0.4839034974575043
1719990012053220296,1.265142798423767,0.4475060999393463,0.4839057028293609
1719990012085009572,1.253663420677185,0.4475043714046478,0.4839056432247162
1719990012116082043,1.239129900932312,0.4475044310092926,0.4839070439338684
1719990012146070598,1.2418831586837769,0.4475097060203552,0.4839086532592773
1719990012176711276,1.2569745779037476,0.4475061893463135,0.48390594124794
1719990012207353335,1.2369731664657593,0.4475067853927612,0.4839053153991699
1719990012237955074,1.2499545812606812,0.4475070536136627,0.4839046895503998
1719990012269511138,1.2575072050094604,0.4475079476833343,0.4839081168174743
1719990012302591231,1.2396677732467651,0.4475080966949463,0.4839069545269012
1719990012361367744,1.236984133720398,0.4475040733814239,0.4839056730270386
1719990012393492301,1.2600587606430054,0.447504311800003,0.4839051067829132
1719990012424963064,1.2556260824203491,0.4475079774856567,0.483904093503952
1719990012455578013,1.2445405721664429,0.4475040733814239,0.4839064180850982
1719990012486313772,1.2513965368270874,0.4475024938583374,0.4839083254337311
1719990012518287649,1.257428526878357,0.4475017488002777,0.4839068055152893
1719990012549309600,1.2655333280563354,0.4475058615207672,0.4839058518409729
1719990012579462376,1.2491658926010132,0.4475042819976806,0.483907014131546
1719990012610146955,1.258856177330017,0.4475040137767792,0.483906626701355
1719990012640732283,1.2455800771713257,0.4475076198577881,0.4839072823524475
1719990012671228221,1.2437642812728882,0.4475066363811493,0.4839084446430206
1719990012703641850,1.2451995611190796,0.4475059509277344,0.4839084148406982
1719990012735335305,1.267772555351257,0.4475030601024627,0.4839047789573669
1719990012794398049,1.2361315488815308,0.4475015997886657,0.483902633190155
1719990012826507897,1.2454842329025269,0.4475053250789642,0.4839048683643341
1719990012856909494,1.2341660261154177,0.4475076794624328,0.483906626701355
1719990012887912545,1.2556852102279663,0.4475060999393463,0.4839052557945251
1719990012918911956,1.2593945264816284,0.4475021362304687,0.4839065968990326
1719990012951039693,1.244587779045105,0.4475021660327911,0.4839051067829132
1719990012981535251,1.2341541051864624,0.447505921125412,0.4839061498641968
1719990013012280120,1.2637385129928589,0.447506695985794,0.4839037656784057
1719990013042826298,1.2526406049728394,0.4475019574165344,0.4839038848876953
1719990013073433117,1.2365931272506714,0.4475050866603851,0.4839070439338684
1719990013104142456,1.2570799589157104,0.4475070834159851,0.4839055836200714
1719990013135759301,1.2535847425460815,0.4475027024745941,0.4839059710502624
1719990013170825065,1.2543147802352903,0.4475040137767792,0.483905017375946
1719990013200166656,1.2395395040512085,0.4475066065788269,0.4839056730270386
1719990013258311835,1.2558149099349976,0.447506308555603,0.4839064478874206
1719990013289003805,1.2486251592636108,0.4475051462650299,0.4839068651199341
1719990013319745553,1.2637656927108765,0.4475042819976806,0.4839051365852356
1719990013351201547,1.25438392162323,0.4475050270557403,0.4839091897010803
1719990013381836705,1.2680615186691284,0.4475011527538299,0.4839049875736236
1719990013412497705,1.2509196996688845,0.4475023448467254,0.4839062392711639
1719990013443103773,1.253398299217224,0.4475088119506836,0.4839071333408355
1719990013473717952,1.2682818174362185,0.4475024938583374,0.4839073121547699
1719990013504340870,1.245876669883728,0.4475021660327911,0.4839063882827759
1719990013535796893,1.2569254636764526,0.4475018978118896,0.4839072525501251
1719990013570607277,1.251595377922058,0.4475065171718597,0.4839058518409729
1719990013627590809,1.2449616193771362,0.4475039839744568,0.4839081764221191
1719990013659464535,1.2561954259872437,0.4475061297416687,0.4839096069335937
1719990013689992233,1.258365035057068,0.4475093185901642,0.4839082360267639
1719990013720691242,1.2398632764816284,0.4475102424621582,0.4839066565036773
1719990013752050155,1.2521871328353882,0.4475060105323791,0.4839055240154266
1719990013783547619,1.2492002248764038,0.4475044310092926,0.4839041531085968
1719990013813857845,1.2602304220199585,0.4475048780441284,0.48390594124794
1719990013844487654,1.251001238822937,0.4475094079971313,0.4839032590389251
1719990013875081752,1.258895754814148,0.4475064277648926,0.4839061200618744
1719990013905683311,1.2597626447677612,0.4475048780441284,0.4839081168174743
1719990013936434241,1.2512558698654177,0.4475070238113403,0.4839054048061371
1719990013967083589,1.2601832151412964,0.447506308555603,0.4839070439338684
1719990014000876006,1.2680810689926147,0.4475075006484985,0.4839095175266266
1719990014059288047,1.245726466178894,0.4475072026252746,0.4839064180850982
1719990014090217707,1.2471245527267456,0.447506308555603,0.4839088320732116
1719990014120933786,1.2578233480453491,0.4475089311599731,0.4839071333408355
1719990014151925427,1.252374529838562,0.4475045800209045,0.4839079082012176
1719990014183317340,1.2389582395553589,0.4475072622299194,0.483908474445343
1719990014213836468,1.2444604635238647,0.4475074410438537,0.4839069545269012
1719990014244545267,1.249355673789978,0.4475077688694,0.4839079976081848
1719990014275252917,1.2453593015670776,0.4475096464157104,0.4839077591896057
1719990014306009135,1.243613600730896,0.4475095868110657,0.4839076399803161
1719990014336466363,1.2550472021102903,0.447507381439209,0.483906477689743
1719990014374266294,1.254989504814148,0.4475078284740448,0.4839084148406982
1719990014402550119,1.2470554113388062,0.4475094676017761,0.4839053750038147
1719990014459669782,1.256725192070007,0.4475083947181701,0.4839097261428833
1719990014490676053,1.2514280080795288,0.447506308555603,0.4839063882827759
1719990014521709133,1.2593787908554075,0.4475081264972687,0.4839068353176117
1719990014552463993,1.249961256980896,0.4475089311599731,0.4839056730270386
1719990014584327919,1.2460416555404663,0.4475057423114776,0.4839072823524475
1719990014614830887,1.2437599897384644,0.4475059807300567,0.4839069545269012
1719990014645406015,1.263290286064148,0.4475036561489105,0.4839068055152893
1719990014676000393,1.2527555227279663,0.4475049376487732,0.4839085042476654
1719990014706787143,1.2539561986923218,0.4475111663341522,0.483908861875534
1719990014737278291,1.260240912437439,0.4475099444389343,0.4839057028293609
1719990014773266071,1.2475675344467163,0.4475063681602478,0.4839066863059997
1719990014802897283,1.2503818273544312,0.4475069940090179,0.4839078187942505
1719990014834946581,1.2573703527450562,0.4475113451480865,0.4839097261428833
1719990014891596061,1.243601679801941,0.4475052058696747,0.4839083254337311
1719990014922265590,1.2519973516464231,0.4475042521953583,0.4839052855968475
1719990014953086639,1.2433146238327026,0.4475045502185821,0.4839056730270386
1719990014984835915,1.245564341545105,0.4475087523460388,0.4839081466197967
1719990015015365633,1.23985755443573,0.4475114643573761,0.4839081466197967
1719990015045944101,1.2505158185958862,0.4475122690200805,0.4839094281196594
1719990015076683910,1.2509764432907104,0.4475033283233642,0.4839082360267639
1719990015107285929,1.2656062841415403,0.4475047290325165,0.4839082360267639
1719990015137921437,1.255626559257507,0.4475110173225403,0.4839090406894684
1719990015168828028,1.2471388578414917,0.4475040137767792,0.483909010887146
1719990015201244726,1.2471636533737185,0.4475016891956329,0.4839082658290863
1719990015260536422,1.2462962865829468,0.447506308555603,0.4839057624340057
1719990015292457069,1.265720248222351,0.4475116431713104,0.4839081764221191
1719990015322940557,1.2716950178146362,0.4475091397762298,0.483906090259552
1719990015354303699,1.2607845067977903,0.4475062191486358,0.48390793800354
1719990015385323370,1.2411540746688845,0.4475063681602478,0.48390793800354
1719990015416595922,1.2601770162582395,0.4475091695785522,0.4839062094688415
1719990015447603474,1.253972411155701,0.4475118219852447,0.4839067161083221
1719990015478461363,1.2481907606124878,0.4475075304508209,0.4839065372943878
1719990015509005932,1.2530230283737185,0.447503000497818,0.4839066863059997
1719990015539638080,1.2493637800216677,0.4475069046020508,0.4839064478874206
1719990015570484950,1.2473810911178589,0.4475144445896148,0.4839085042476654
1719990015602972430,1.2512558698654177,0.4475137591361999,0.4839086234569549
1719990015636723836,1.249122977256775,0.4475051760673523,0.4839071035385132
1719990015693829949,1.243294596672058,0.447508692741394,0.4839085042476654
1719990015724736260,1.2509502172470093,0.4475110471248626,0.483908861875534
1719990015755708670,1.2635620832443235,0.4475108385086059,0.4839064478874206
1719990015786460340,1.2508419752120972,0.4475032389163971,0.4839052259922027
1719990015818222504,1.2494601011276243,0.4475034475326538,0.4839066565036773
1719990015848638072,1.2639564275741575,0.4475111663341522,0.4839072525501251
1719990015879310291,1.2599962949752808,0.4475073218345642,0.4839089810848236
1719990015909985560,1.251479983329773,0.4475042819976806,0.48390793800354
1719990015940581068,1.250665545463562,0.447500616312027,0.4839070439338684
1719990015971565869,1.250848650932312,0.4475038647651672,0.4839074909687042
1719990016003839688,1.2643650770187378,0.4475045502185821,0.4839048087596893
1719990016033654771,1.2591999769210815,0.4474972188472748,0.4839047789573669
1719990016094181954,1.2543190717697144,0.4474979341030121,0.4839055240154266
1719990016126144211,1.2498778104782104,0.4475015103816986,0.4839048981666565
1719990016157419773,1.2539924383163452,0.4475046396255493,0.4839083254337311
1719990016188254763,1.2665647268295288,0.447498470544815,0.4839070439338684
1719990016219284023,1.234655737876892,0.4474971294403076,0.4839088916778564
1719990016251132029,1.2467411756515503,0.4475001990795135,0.4839060604572296
1719990016281686857,1.2401689291000366,0.4475031793117523,0.4839068949222564
1719990016312407277,1.2602394819259644,0.4474967420101166,0.4839070439338684
1719990016343027585,1.2429450750350952,0.4474950730800628,0.4839052259922027
1719990016373590473,1.2604907751083374,0.4475031197071075,0.4839062392711639
1719990016404334672,1.253125548362732,0.447507232427597,0.4839091598987579
1719990016435863606,1.2350648641586304,0.4475040137767792,0.4839087426662445
1719990016470181107,1.2626513242721558,0.4474961161613464,0.4839042723178863
1719990016502113623,1.265111804008484,0.4474948048591614,0.4839080572128296
1719990016557527376,1.24811589717865,0.4475059509277344,0.4839091002941131
1719990016588253315,1.2547792196273804,0.4475026130676269,0.4839070737361908
1719990016619253196,1.252768874168396,0.4474984109401703,0.4839062690734863
1719990016651000621,1.2484954595565796,0.4475002586841583,0.4839080572128296
1719990016680919145,1.252670168876648,0.4475059807300567,0.4839075803756714
1719990016711563814,1.2505587339401243,0.4475046992301941,0.4839079678058624
1719990016742104182,1.2673362493515017,0.447502076625824,0.4839068353176117
1719990016772791551,1.2513965368270874,0.4475024938583374,0.4839083254337311
1719990016803314489,1.2442234754562378,0.4475041627883911,0.483908474445343
1719990016836971065,1.2564319372177124,0.4475049674510956,0.4839110970497131
1719990016869660686,1.2434190511703491,0.4475022256374359,0.4839082360267639
1719990016926647478,1.2593945264816284,0.4475021362304687,0.4839065968990326
1719990016958225782,1.257428526878357,0.4475038349628448,0.4839078187942505
1719990016988984711,1.246622920036316,0.447506308555603,0.4839096367359161
1719990017019665131,1.2515023946762085,0.447505235671997,0.4839076697826385
1719990017051530326,1.2401212453842163,0.4475017488002777,0.4839062094688415
1719990017082837249,1.2560046911239624,0.4474982619285583,0.4839065670967102
1719990017112757343,1.2499865293502808,0.447504460811615,0.4839063286781311
1719990017143384952,1.2531579732894895,0.4475034177303314,0.4839060008525848
1719990017174076081,1.2392839193344116,0.447497695684433,0.4839074313640594
1719990017204670459,1.2493952512741089,0.4474966824054718,0.483905553817749
1719990017236055732,1.241904616355896,0.4474993944168091,0.4839078187942505
1719990017269826169,1.2487534284591677,0.4475030601024627,0.483906090259552
1719990017303690667,1.2498124837875366,0.4474996626377105,0.48390594124794
1719990017359961065,1.2519296407699585,0.4474963247776031,0.4839030504226684
1719990017391006536,1.2454012632369995,0.4475009441375732,0.4839074611663818
1719990017421556604,1.2360738515853882,0.4475027024745941,0.4839082360267639
1719990017452377704,1.239911437034607,0.4474950432777405,0.4839062094688415
1719990017484276840,1.2385815382003784,0.4474965631961822,0.4839071631431579
1719990017514852308,1.222762942314148,0.4474993646144867,0.4839074313640594
1719990017545444187,1.253215193748474,0.4475015997886657,0.4839064478874206
1719990017576035545,1.2410906553268433,0.4474956095218658,0.483905017375946
1719990017606736134,1.248928427696228,0.4474938809871673,0.4839072227478027
1719990017637414303,1.2543271780014038,0.4474967420101166,0.4839068651199341
1719990017670696097,1.2668331861495972,0.4474959075450897,0.4839063584804535
1719990017701480776,1.2535899877548218,0.4474962651729584,0.4839052855968475
1719990017760681741,1.255163550376892,0.4474964737892151,0.4839082658290863
1719990017792726718,1.2467693090438845,0.4474966526031494,0.4839051365852356
1719990017823681359,1.2452811002731323,0.447496235370636,0.483906090259552
1719990017854900251,1.2340854406356812,0.4474977850914001,0.4839057028293609
1719990017885712550,1.2514194250106812,0.4474943578243255,0.4839058220386505
1719990017917541906,1.2380002737045288,0.4474947154521942,0.4839069843292236
1719990017947442750,1.2318381071090698,0.4474953711032867,0.4839042425155639
1719990017978116689,1.2375205755233765,0.4474973976612091,0.4839077591896057
1719990018008723897,1.2396644353866575,0.4474964141845703,0.4839056730270386
1719990018039404247,1.2471507787704468,0.4474979043006897,0.4839047491550445
1719990018070037415,1.2368658781051636,0.4474979341030121,0.4839055240154266
1719990018102784336,1.2563766241073608,0.447498083114624,0.4839065074920654
1719990018134543201,1.2550486326217651,0.4474929571151733,0.4839054346084595
1719990018193771676,1.2492913007736206,0.4474953711032867,0.4839042425155639
1719990018224551396,1.2543271780014038,0.4474967420101166,0.4839068651199341
1719990018255420186,1.2446240186691284,0.4474999904632568,0.4839071333408355
1719990018286114775,1.2486971616744995,0.44749516248703,0.4839058518409729
1719990018318121141,1.2493799924850464,0.4474959075450897,0.4839063584804535
1719990018349403244,1.2349776029586792,0.4474982023239136,0.4839054942131042
1719990018379508889,1.2454036474227903,0.4475005567073822,0.4839072525501251
1719990018410089388,1.2410262823104858,0.4474974870681762,0.4839050471782684
1719990018440712596,1.2595175504684448,0.4474966526031494,0.4839068353176117
1719990018471406326,1.2365044355392456,0.4474970996379852,0.48390594124794
1719990018503146490,1.246940016746521,0.4474967420101166,0.4839049577713012
1719990018536068912,1.2493799924850464,0.4474959075450897,0.4839063584804535
1719990018568043038,1.233070731163025,0.4474970698356628,0.4839065968990326
1719990018625551484,1.2343887090682983,0.4474958777427673,0.4839067757129669
1719990018656437794,1.2319267988204956,0.4474959075450897,0.4839063584804535
1719990018687248984,1.2488621473312378,0.4475018382072449,0.4839047789573669
1719990018719172860,1.2548130750656128,0.4474981129169464,0.4839065968990326
1719990018751247677,1.249089598655701,0.447496622800827,0.4839077591896057
1719990018781817305,1.245198130607605,0.4474961161613464,0.4839042723178863
1719990018812281733,1.242655634880066,0.447499006986618,0.4839062988758087
1719990018843054492,1.2421091794967651,0.4474964141845703,0.4839077293872833
1719990018873739611,1.2427862882614136,0.4474967420101166,0.4839070439338684
1719990018904402360,1.2427862882614136,0.4474967420101166,0.4839070439338684
1719990018936675078,1.2631324529647827,0.447498083114624,0.4839070737361908
1719990018969716871,1.2412184476852417,0.447496622800827,0.4839058518409729
1719990019027680489,1.23355233669281,0.4474951326847076,0.4839084148406982
1719990019059653025,1.2433298826217651,0.4474954307079315,0.4839070737361908
1719990019090123762,1.2560046911239624,0.4474982619285583,0.4839065670967102
1719990019120960982,1.2563165426254272,0.4474986791610718,0.483906090259552
1719990019152000853,1.2310346364974976,0.4474961459636688,0.4839049875736236
1719990019184386412,1.253512263298035,0.4474950730800628,0.483906090259552
1719990019214107925,1.2361911535263062,0.4474958479404449,0.4839056134223938
1719990019244800084,1.2361477613449097,0.4474980235099792,0.4839091002941131
1719990019275386582,1.243428111076355,0.4474942982196808,0.4839095175266266
1719990019306010501,1.2468341588974,0.4474901556968689,0.4839043915271759
1719990019336621909,1.243346095085144,0.4474957287311554,0.4839061796665191
1719990019367323909,1.2433298826217651,0.4474954307079315,0.4839070737361908
1719990019404089583,1.2302054166793823,0.4474948048591614,0.4839080572128296
1719990019460401091,1.253512263298035,0.4474950730800628,0.483906090259552
1719990019491408602,1.246691107749939,0.4474897384643554,0.4839064478874206
1719990019522216361,1.2202571630477903,0.4474938511848449,0.4839055240154266
1719990019553068312,1.2353261709213257,0.4474970996379852,0.4839068651199341
1719990019584866977,1.2401760816574097,0.447495549917221,0.4839053750038147
1719990019616079309,1.24791419506073,0.4474948942661285,0.4839069545269012
1719990019646073644,1.24675452709198,0.4474965035915375,0.4839059114456177
1719990019676723033,1.2447937726974487,0.4474951922893524,0.4839068055152893
1719990019707473442,1.2538546323776243,0.4474959671497345,0.4839065372943878
1719990019738057290,1.2406967878341677,0.4475003480911255,0.4839080572128296
1719990019769116481,1.2442654371261597,0.447496086359024,0.483907401561737
1719990019800775446,1.244076132774353,0.4474954009056091,0.4839072823524475
1719990019835572138,1.259189486503601,0.4474950134754181,0.4839085042476654
1719990019892052408,1.2495087385177612,0.4474977254867553,0.4839065968990326
1719990019922826297,1.245190978050232,0.4474994242191314,0.4839072227478027
1719990019953766058,1.2402194738388062,0.4474954605102539,0.483907550573349
1719990019985295201,1.2304610013961792,0.4474948942661285,0.4839069545269012
1719990020016589564,1.2323273420333862,0.4474951326847076,0.4839059710502624
1719990020047302243,1.2510770559310913,0.4474966824054718,0.483906626701355
1719990020077908271,1.2428802251815796,0.4474937617778778,0.4839069843292236
1719990020108531320,1.2472981214523315,0.4474941790103912,0.4839079678058624
1719990020139206569,1.2282689809799194,0.4474953413009643,0.4839068651199341
1719990020169785677,1.239216685295105,0.4474932253360748,0.4839058220386505
1719990020203760425,1.2398093938827517,0.4474932849407196,0.483907014131546
1719990020236364965,1.2268122434616089,0.4474903047084808,0.4839061796665191
1719990020293639639,1.249724268913269,0.447492390871048,0.4839091598987579
1719990020324320957,1.232505202293396,0.4474921226501465,0.4839033782482147
1719990020355235668,1.2388147115707395,0.4474913775920868,0.4839052259922027
1719990020386009627,1.2234996557235718,0.4474931955337524,0.4839066863059997
1719990020417579311,1.2200645208358765,0.4474935233592987,0.4839083552360534
1719990020447835447,1.2299765348434448,0.4474935531616211,0.4839044213294983
1719990020478492747,1.235606074333191,0.4474939107894897,0.4839059710502624
1719990020509082885,1.2353571653366089,0.4474920034408569,0.483907550573349
1719990020539703114,1.2252925634384155,0.4474905729293823,0.4839071333408355
1719990020570260351,1.2311304807662964,0.4474942982196808,0.4839059710502624
1719990020603550056,1.2349971532821655,0.4474926888942718,0.4839078485965729
1719990020633510410,1.2339304685592651,0.4474943876266479,0.4839059710502624
1719990020693898892,1.2272590398788452,0.4474919140338897,0.4839057326316833
1719990020724551570,1.2160032987594604,0.4474928975105285,0.4839064478874206
1719990020755391331,1.2315109968185425,0.4474926888942718,0.4839052557945251
1719990020786195800,1.2285984754562378,0.4474899768829345,0.4839042723178863
1719990020817579023,1.2284244298934937,0.4474896490573883,0.4839050471782684
1719990020847873650,1.22996985912323,0.4474890828132629,0.4839048683643341
1719990020878422808,1.2367175817489624,0.4474850296974182,0.483909010887146
1719990020909291718,1.2301019430160522,0.4474883377552032,0.48390594124794
1719990020940160558,1.2286614179611206,0.4474907517433166,0.4839068651199341
1719990020970693326,1.2435740232467651,0.4474901258945465,0.48390594124794
1719990021002544212,1.2319210767745972,0.4474932253360748,0.4839086532592773
1719990021036975022,1.240207552909851,0.4474938511848449,0.483905166387558
1719990021094308846,1.223460078239441,0.4474890232086181,0.4839069545269012
1719990021126017961,1.2214521169662476,0.4474896788597107,0.4839053153991699
1719990021156902311,1.243563532829285,0.447492241859436,0.4839052259922027
1719990021187678540,1.2366846799850464,0.4474909007549286,0.4839035272598266
1719990021218651821,1.2377175092697144,0.4474914371967315,0.4839063286781311
1719990021251112350,1.2512892484664917,0.4474946558475494,0.4839052557945251
1719990021281659419,1.2426255941390991,0.4474925100803375,0.4839054346084595
1719990021312244147,1.2410415410995483,0.4474939405918121,0.4839068651199341
1719990021342882396,1.244076132774353,0.4474954009056091,0.4839072823524475
1719990021373464044,1.240350604057312,0.4474957287311554,0.4839092493057251
1719990021404048371,1.24791419506073,0.4474948942661285,0.4839069545269012
1719990021434627870,1.2388871908187866,0.4474965333938598,0.4839039444923401
1719990021469162361,1.2403653860092163,0.4474959969520569,0.483906477689743
1719990021527438551,1.2570136785507202,0.4474975168704986,0.4839062988758087
1719990021559407208,1.2401827573776243,0.4474948942661285,0.4839068949222564
1719990021589925165,1.2313421964645386,0.4474967718124389,0.4839047789573669
1719990021621434279,1.2355912923812866,0.4474965631961822,0.4839051961898803
1719990021652376299,1.2396711111068726,0.4474977552890777,0.4839085638523102
1719990021683372170,1.246940016746521,0.4474967420101166,0.4839049577713012
1719990021714143259,1.2459014654159546,0.4474979341030121,0.4839056730270386
1719990021744712167,1.23043954372406,0.4474940299987793,0.4839074909687042
1719990021775202145,1.2342127561569214,0.4474945068359375,0.4839026033878326
1719990021805863134,1.2526854276657104,0.4474951922893524,0.4839071929454803
1719990021836479683,1.2478927373886108,0.447496086359024,0.4839063584804535
1719990021868261878,1.2304610013961792,0.4474948942661285,0.4839069545269012
1719990021901555532,1.2497810125350952,0.4474951326847076,0.4839059710502624
1719990021959965222,1.2325972318649292,0.4474961757659912,0.4839079976081848
1719990021991659397,1.2441190481185913,0.4474962055683136,0.48390793800354
1719990022022275075,1.2493799924850464,0.4474959075450897,0.4839063584804535
1719990022053135046,1.2319267988204956,0.4474959075450897,0.4839063584804535
1719990022084771640,1.2422460317611694,0.447500079870224,0.4839063882827759
1719990022115262038,1.2239011526107788,0.4474968016147613,0.4839080274105072
1719990022146050317,1.24698007106781,0.4474959075450897,0.4839043021202087
1719990022176695446,1.2478746175765991,0.4474935531616211,0.4839071333408355
1719990022207482255,1.2444032430648804,0.4474949538707733,0.4839076697826385
1719990022238129253,1.236207365989685,0.4474968910217285,0.4839068353176117
1719990022269125314,1.245219588279724,0.447491317987442,0.4839049875736236
1719990022303301133,1.2375353574752808,0.4474943578243255,0.483906090259552
1719990022336108765,1.24543035030365,0.4474959373474121,0.4839081466197967
1719990022391877030,1.2549885511398315,0.4474943578243255,0.483906090259552
1719990022422543149,1.2398055791854858,0.4474951028823852,0.4839047789573669
1719990022453390568,1.250048041343689,0.4474959075450897,0.4839072227478027
1719990022485105833,1.244076132774353,0.4474954009056091,0.4839072823524475
1719990022516200974,1.2378543615341189,0.4474947154521942,0.483904480934143
1719990022546998194,1.2324947118759155,0.447494626045227,0.483908087015152
1719990022577545632,1.2461498975753784,0.4474968612194061,0.4839083850383758
1719990022608126151,1.25536048412323,0.447494775056839,0.4839060008525848
1719990022638888900,1.2402790784835815,0.4474939405918121,0.4839062392711639
1719990022669517198,1.2319267988204956,0.4474959075450897,0.4839063584804535
1719990022702037318,1.2334479093551636,0.4474983811378479,0.483907401561737
1719990022737037461,1.2348212003707886,0.4474948942661285,0.4839087426662445
1719990022792899867,1.2304214239120483,0.4474935531616211,0.4839071333408355
1719990022823578266,1.2483419179916382,0.4474921822547912,0.4839050769805908
1719990022854479566,1.2319267988204956,0.4474959075450897,0.4839063584804535
1719990022885179035,1.2535899877548218,0.4474962651729584,0.4839052855968475
1719990022916695529,1.2603715658187866,0.4474948942661285,0.4839068949222564
1719990022947393458,1.2472981214523315,0.4474941790103912,0.4839079678058624
1719990022978005396,1.2301558256149292,0.447496086359024,0.4839085936546325
1719990023008712705,1.2433298826217651,0.4474954307079315,0.4839070737361908
1719990023039244883,1.2401565313339231,0.4474959969520569,0.4839058220386505
1719990023069818411,1.2543271780014038,0.4474967420101166,0.4839068651199341
1719990023106239013,1.237596869468689,0.4474949836730957,0.4839054346084595
1719990023133252041,1.2319267988204956,0.4474959075450897,0.4839063584804535
1719990023193496522,1.2304610013961792,0.4474948942661285,0.4839069545269012
1719990023225807170,1.2304610013961792,0.4474948942661285,0.4839069545269012
1719990023257175373,1.2379635572433472,0.4474925398826599,0.4839078783988952
1719990023288191134,1.2472981214523315,0.4474941790103912,0.4839079678058624
1719990023319017083,1.2420305013656616,0.4474943876266479,0.4839081764221191
1719990023351002970,1.2348212003707886,0.4474948942661285,0.4839087426662445
1719990023381382237,1.2325533628463743,0.4474941492080688,0.4839076101779938
1719990023412049656,1.2325180768966677,0.4474932551383972,0.4839103519916534
1719990023442714215,1.2352584600448608,0.4474937915802002,0.4839089810848236
1719990023473304903,1.2518419027328491,0.4474932253360748,0.4839088022708893
1719990023503956502,1.2392438650131226,0.4474912881851196,0.4839089810848236
1719990023537462447,1.2303160429000854,0.4474968910217285,0.4839130640029907
1719990023570072977,1.2404841184616089,0.4474932849407196,0.4839091300964355
1719990023626990488,1.252947211265564,0.4474900364875793,0.4839125573635101
1719990023658694424,1.2483938932418823,0.4474926888942718,0.483913779258728
1719990023689505583,1.24832284450531,0.4474891722202301,0.4839120209217071
1719990023720196042,1.241976618766785,0.4474920630455017,0.4839108288288116
1719990023751944167,1.2342222929000854,0.4474881589412689,0.4839116632938385
1719990023783415681,1.224948763847351,0.4474906623363495,0.4839121401309967
1719990023813934878,1.2382653951644895,0.4474915862083435,0.4839157462120056
1719990023844541126,1.2415350675582886,0.447487473487854,0.4839129149913788
1719990023875124215,1.2355788946151731,0.4474900066852569,0.483912318944931
1719990023905752683,1.226650595664978,0.4474884569644928,0.4839146435260772
1719990023936307602,1.2471340894699097,0.4474881887435913,0.483914166688919
1719990023970742112,1.2395490407943726,0.447488784790039,0.4839128255844116
1719990024003310682,1.2366441488265991,0.4474897980690002,0.4839131236076355
1719990024059551820,1.225589632987976,0.4474890530109405,0.4839120805263519
1719990024089909227,1.2321566343307495,0.4474866092205047,0.4839150607585907
1719990024120532075,1.2344521284103394,0.4474877715110779,0.4839142858982086
1719990024151840887,1.234324336051941,0.447486400604248,0.4839130640029907
1719990024183238411,1.2323673963546753,0.4474835693836212,0.4839131832122803
1719990024213874499,1.238977313041687,0.4474805891513824,0.4839144945144653
1719990024244456618,1.2296956777572632,0.4474881291389465,0.4839134812355041
1719990024275222427,1.2161329984664917,0.4474851787090301,0.4839141070842743
1719990024305811015,1.2250875234603882,0.4474863111972809,0.4839122891426086
1719990024336459794,1.2455700635910034,0.4474850594997406,0.483914703130722
1719990024371674529,1.2219494581222534,0.4474823176860809,0.4839182496070862
1719990024402256777,1.220476508140564,0.4474847912788391,0.4839155077934265
1719990024460099374,1.2399529218673706,0.4474879801273346,0.4839130938053131
1719990024491512017,1.2442158460617063,0.4474870860576629,0.4839125275611877
1719990024522255896,1.2344330549240112,0.4474833607673645,0.4839138984680176
1719990024553068676,1.2375072240829468,0.4474852383136749,0.4839147627353668
1719990024584422519,1.232577204704285,0.4474824070930481,0.4839158654212951
1719990024615139277,1.2436751127243042,0.4474833309650421,0.4839148223400116
1719990024645736976,1.230018973350525,0.4474786818027496,0.4839152693748474
1719990024676421975,1.2165297269821167,0.4474803507328033,0.4839147329330444
1719990024707047944,1.2186673879623413,0.4474820494651794,0.4839142560958862
1719990024737723162,1.2143982648849487,0.4474821388721466,0.4839168488979339
1719990024770590773,1.2155498266220093,0.4474749565124511,0.4839150309562683
1719990024805335716,1.228385329246521,0.4474730193614959,0.4839164018630981
1719990024835620122,1.2155312299728394,0.4474764168262481,0.483915776014328
1719990024892273663,1.2313493490219116,0.4474787414073944,0.4839144051074981
1719990024922350028,1.2072118520736694,0.4474807381629944,0.483915776014328
1719990024953140998,1.2175320386886597,0.4474784433841705,0.483912855386734
1719990024984763072,1.2239049673080444,0.4474802613258362,0.4839152097702026
1719990025015485841,1.225568175315857,0.4474835395812988,0.4839134216308594
1719990025046091129,1.2239588499069214,0.4474845230579376,0.4839152097702026
1719990025076691897,1.2250784635543823,0.447478711605072,0.4839136302471161
1719990025107413287,1.2229140996932983,0.4474824070930481,0.4839127659797668
1719990025138065415,1.2189935445785522,0.4474845826625824,0.4839140474796295
1719990025169377228,1.2394970655441284,0.4474822580814361,0.4839150905609131
1719990025202503191,1.2418192625045776,0.4474804103374481,0.4839126467704773
1719990025237741756,1.221263766288757,0.447485864162445,0.4839146137237549
1719990025292184093,1.2315291166305542,0.4474831819534302,0.4839148223400116
1719990025322896312,1.2287944555282593,0.4474850296974182,0.4839135706424713
1719990025353720302,1.2244118452072144,0.447485089302063,0.4839150607585907
1719990025385044034,1.2267626523971558,0.4474870860576629,0.4839125275611877
1719990025416212786,1.2449735403060913,0.4474827647209167,0.4839136600494385
1719990025446658583,1.241557002067566,0.4474842846393585,0.483914315700531
1719990025477354292,1.218910574913025,0.4474813938140869,0.4839154779911041
1719990025507958211,1.2421387434005735,0.4474826455116272,0.4839149713516235
1719990025538602709,1.2294477224349976,0.447484403848648,0.4839154183864593
1719990025569569220,1.2346051931381226,0.4474888145923614,0.4839162826538086
1719990025603409477,1.2333606481552124,0.4474892616271972,0.483915776014328
1719990025636594750,1.235455870628357,0.4474849998950958,0.4839149117469787
1719990025692542296,1.2449792623519895,0.4474853277206421,0.4839141070842743
1719990025723065304,1.2467864751815796,0.4474863409996032,0.4839130938053131
1719990025754048325,1.249092936515808,0.4474899470806122,0.483913779258728
1719990025785213746,1.2207239866256714,0.4474864900112152,0.4839143455028534
1719990025816488479,1.2325085401535034,0.4474855959415436,0.4839139878749847
1719990025847199538,1.231420874595642,0.4474882185459137,0.4839156568050384
1719990025877833376,1.2415298223495483,0.4474868774414062,0.4839143455028534
1719990025908480675,1.239824652671814,0.4474858343601227,0.4839137494564056
1719990025939103103,1.2340916395187378,0.4474891722202301,0.4839147329330444
1719990025969676241,1.2274249792099,0.4474889934062958,0.4839158356189728
1719990026002604393,1.2293089628219604,0.4474869668483734,0.4839146435260772
1719990026037621297,1.226847529411316,0.4474874138832092,0.4839155375957489
1719990026093092950,1.230138659477234,0.4474816024303436,0.4839157462120056
1719990026123906660,1.226643443107605,0.4474849998950958,0.4839132726192474
1719990026155031682,1.2325085401535034,0.4474855959415436,0.4839139878749847
1719990026185796341,1.2176097631454468,0.447478711605072,0.4839160442352295
1719990026217769017,1.2192052602767944,0.4474794268608093,0.4839146733283996
1719990026248208664,1.226706862449646,0.4474815130233764,0.4839137196540832
1719990026278941603,1.2325085401535034,0.4474855959415436,0.4839139878749847
1719990026309562932,1.228613257408142,0.4474871158599853,0.4839148223400116
1719990026340154590,1.243934988975525,0.4474811553955078,0.4839155375957489
1719990026370849069,1.2159970998764038,0.4474842846393585,0.4839147627353668
1719990026402074011,1.2244571447372437,0.4474798738956451,0.4839165210723877
1719990026434648971,1.2210005521774292,0.447484016418457,0.4839126467704773
1719990026468417387,1.219056487083435,0.447482019662857,0.4839167296886444
1719990026524104042,1.2287448644638062,0.4474835395812988,0.4839163422584533
1719990026554921991,1.222047209739685,0.4474863111972809,0.4839165508747101
1719990026585643261,1.2317107915878296,0.4474872052669525,0.4839179217815399
1719990026617621837,1.2122682332992554,0.4474895596504211,0.4839171767234802
1719990026648012834,1.2047981023788452,0.4474824666976928,0.4839145839214325
1719990026678634102,1.2365573644638062,0.4474791586399078,0.4839167296886444
1719990026709295241,1.22370183467865,0.4474879801273346,0.4839142858982086
1719990026739976590,1.2159265279769895,0.4474862515926361,0.4839175045490265
1719990026770563488,1.2466291189193726,0.4474765658378601,0.483912855386734
1719990026803040327,1.2252253293991089,0.447475790977478,0.4839127957820892
1719990026833136033,1.2275890111923218,0.4474826455116272,0.4839154183864593
1719990026868724540,1.2164725065231323,0.447484940290451,0.4839173555374145
1719990026925011678,1.2326401472091677,0.4474782347679138,0.4839157462120056
1719990026955705857,1.2176440954208374,0.4474826157093048,0.4839169979095459
1719990026986472967,1.2086819410324097,0.447483092546463,0.4839158356189728
1719990027018174201,1.2132638692855835,0.4474802911281585,0.4839172065258026
1719990027048614808,1.230626940727234,0.4474762976169586,0.4839184284210205
1719990027079191877,1.1998995542526243,0.4474740326404571,0.4839175045490265
1719990027109899955,1.2069677114486694,0.4474753439426422,0.4839168787002563
1719990027140434583,1.2382277250289917,0.4474745094776153,0.4839174449443817
1719990027170988442,1.2221893072128296,0.4474748373031616,0.4839154183864593
1719990027203569661,1.2231673002243042,0.4474757611751556,0.4839175045490265
1719990027233665976,1.2124418020248413,0.4474785327911377,0.4839197695255279
1719990027294282370,1.215969443321228,0.4474743008613586,0.4839173257350921
1719990027326040474,1.2113431692123413,0.447474718093872,0.483919233083725
1719990027357172086,1.2048777341842651,0.4474748075008392,0.4839179217815399
1719990027388097526,1.234355330467224,0.4474814236164093,0.483914703130722
1719990027419020807,1.2266377210617063,0.4474778473377228,0.483917087316513
1719990027450867592,1.2221897840499878,0.4474739134311676,0.4839194715023041
1719990027480847437,1.207828402519226,0.4474775195121765,0.4839178323745727
1719990027511477566,1.2157419919967651,0.4474807977676391,0.4839171767234802
1719990027542056413,1.2098411321640017,0.4474757313728332,0.4839183390140533
1719990027572625261,1.2168163061141968,0.4474756717681885,0.4839178025722503
1719990027603140760,1.204259753227234,0.4474728405475616,0.4839193820953369
1719990027636414873,1.220250964164734,0.4474779665470123,0.4839182198047638
1719990027669672307,1.2213391065597534,0.4474764466285705,0.4839171171188354
1719990027726150456,1.2279199361801147,0.4474759101867676,0.4839183390140533
1719990027757529199,1.2033041715621948,0.4474745690822601,0.4839186072349548
1719990027788134907,1.2105621099472046,0.4474752843379974,0.4839174747467041
1719990027818996137,1.2274836301803589,0.4474735260009765,0.4839184582233429
1719990027851014413,1.204121470451355,0.4474782049655914,0.4839171767234802
1719990027881225080,1.217671275138855,0.4474754333496094,0.4839205145835876
1719990027911835588,1.2098058462142944,0.4474758207798004,0.4839164912700653
1719990027942437897,1.2167452573776243,0.4474731087684631,0.4839194416999817
1719990027973008774,1.233651041984558,0.4474726319313049,0.4839204847812652
1719990028003728283,1.2172664403915403,0.4474735856056213,0.4839192926883697
1719990028036007212,1.2060855627059937,0.4474729001522064,0.4839189946651459
1719990028069453106,1.2068346738815308,0.4474713504314422,0.4839178025722503
1719990028126736790,1.2285431623458862,0.4474698305130005,0.4839167594909668
1719990028158125603,1.2189778089523315,0.4474659860134125,0.483915239572525
1719990028189171264,1.2107971906661987,0.4474683701992035,0.4839189946651459
1719990028219760062,1.2080363035202026,0.4474704563617706,0.483914852142334
1719990028251739998,1.202250361442566,0.4474717080593109,0.4839207828044891
1719990028283035250,1.2028793096542358,0.4474700093269348,0.4839173853397369
1719990028312828025,1.2060235738754272,0.4474685788154602,0.4839180707931518
1719990028343447853,1.2037729024887085,0.4474664330482483,0.4839171469211578
1719990028374131341,1.201158881187439,0.4474662840366363,0.4839147627353668
1719990028404767450,1.1910127401351929,0.4474638998508453,0.4839178025722503
1719990028437708412,1.1982139348983765,0.4474658668041229,0.4839123487472534
1719990028470468342,1.2058590650558472,0.4474658966064453,0.4839150309562683
1719990028501330533,1.195438265800476,0.4474669694900512,0.4839175045490265
1719990028558386405,1.2004703283309937,0.4474679231643677,0.4839183688163757
1719990028589215005,1.1902722120285034,0.4474668204784393,0.483918160200119
1719990028619915453,1.1901596784591677,0.4474660158157348,0.4839182794094085
1719990028651557288,1.2145761251449585,0.4474675953388214,0.4839183092117309
1719990028682603919,1.2070568799972534,0.4474650025367737,0.4839183986186981
1719990028712763414,1.1989492177963257,0.4474648833274841,0.4839192032814026
1719990028743345192,1.205771803855896,0.4474689662456512,0.4839165806770324
